{"snappedPoints":[{"location":{"latitude":26.616404031678773,"longitude":106.64518910362794},"originalIndex":0,"placeId":"ChIJfYh89cRmvzYRxMyF--cTg5U"},{"location":{"latitude":26.616139599999997,"longitude":106.6451986},"placeId":"ChIJfYh89cRmvzYRxMyF--cTg5U"},{"location":{"latitude":26.616139599999997,"longitude":106.6451986},"placeId":"ChIJebA_wMRmvzYRdI3Ey_AHh9c"},{"location":{"latitude":26.615397366156685,"longitude":106.64522360046439},"originalIndex":1,"placeId":"ChIJebA_wMRmvzYRdI3Ey_AHh9c"},{"location":{"latitude":26.61464075611134,"longitude":106.64524908482436},"originalIndex":2,"placeId":"ChIJebA_wMRmvzYRdI3Ey_AHh9c"},{"location":{"latitude":26.6144592,"longitude":106.6452552},"placeId":"ChIJebA_wMRmvzYRdI3Ey_AHh9c"},{"location":{"latitude":26.6141314,"longitude":106.645263},"placeId":"ChIJebA_wMRmvzYRdI3Ey_AHh9c"},{"location":{"latitude":26.6141314,"longitude":106.645263},"placeId":"ChIJJS70ycRmvzYRch6nzQOI44M"},{"location":{"latitude":26.613573000000002,"longitude":106.6452755},"placeId":"ChIJJS70ycRmvzYRch6nzQOI44M"},{"location":{"latitude":26.613573000000002,"longitude":106.6452755},"placeId":"ChIJ_RZPNdtmvzYRpepcAMT-vww"},{"location":{"latitude":26.613508056868415,"longitude":106.64527702660415},"originalIndex":3,"placeId":"ChIJ_RZPNdtmvzYRpepcAMT-vww"},{"location":{"latitude":26.613313500000004,"longitude":106.64528159999999},"placeId":"ChIJ_RZPNdtmvzYRpepcAMT-vww"},{"location":{"latitude":26.613313500000004,"longitude":106.64528159999999},"placeId":"ChIJt4adNdtmvzYRS7o_DcWCWKY"},{"location":{"latitude":26.613267600000004,"longitude":106.6452826},"placeId":"ChIJt4adNdtmvzYRS7o_DcWCWKY"},{"location":{"latitude":26.613267600000004,"longitude":106.6452826},"placeId":"ChIJxeIPONtmvzYR9BydW1inMtM"},{"location":{"latitude":26.61252907021248,"longitude":106.64529977672069},"originalIndex":4,"placeId":"ChIJxeIPONtmvzYR9BydW1inMtM"},{"location":{"latitude":26.6121626,"longitude":106.6453083},"placeId":"ChIJxeIPONtmvzYR9BydW1inMtM"},{"location":{"latitude":26.6121626,"longitude":106.6453083},"placeId":"ChIJq7VWFdtmvzYRHEEnlxjCw38"},{"location":{"latitude":26.611884799999995,"longitude":106.6453176},"placeId":"ChIJq7VWFdtmvzYRHEEnlxjCw38"},{"location":{"latitude":26.611884799999995,"longitude":106.6453176},"placeId":"ChIJAYPOFNtmvzYR9Uswsy7XXkI"},{"location":{"latitude":26.611732301433783,"longitude":106.64532265961569},"originalIndex":5,"placeId":"ChIJAYPOFNtmvzYR9Uswsy7XXkI"},{"location":{"latitude":26.611712999999998,"longitude":106.6453233},"placeId":"ChIJAYPOFNtmvzYR9Uswsy7XXkI"},{"location":{"latitude":26.611712999999998,"longitude":106.6453233},"placeId":"ChIJ43HVEttmvzYRRO4KbWvUK9Q"},{"location":{"latitude":26.611378053201463,"longitude":106.64534031052249},"originalIndex":6,"placeId":"ChIJ43HVEttmvzYRRO4KbWvUK9Q"}]}